%time,field.header.seq,field.header.stamp,field.pose.position.x,field.pose.position.y,field.pose.position.z,field.pose.orientation.x,field.pose.orientation.y,field.pose.orientation.z,field.pose.orientation.w
1609046839925351162,579,1609046839924956989,-0.000172581621943,-7.85694625538e-05,0.000277510310058,0.0,0.0,0.0,1.0
1609046839974326522,580,1609046839973895025,0.0001846276358,-5.7536085647e-05,0.00028240476956,0.0,0.0,0.0,1.0
1609046840023148053,581,1609046840022637081,8.69913851922e-05,-0.000152638472905,0.000187186682934,0.0,0.0,0.0,1.0
1609046840072981736,582,1609046840072735023,0.000160573768831,-0.000176721047142,0.000255687028353,0.0,0.0,0.0,1.0
1609046840121933921,583,1609046840121411037,0.000108786878769,-8.17180853616e-05,0.000188995020398,0.0,0.0,0.0,1.0
1609046840175005923,584,1609046840174370002,0.000163182541034,-4.68698222775e-05,0.000107620743421,0.0,0.0,0.0,1.0
1609046840223941080,585,1609046840223540973,0.000122707915438,-5.5868126223e-05,0.000178399690888,0.0,0.0,0.0,1.0
1609046840270970550,586,1609046840270759057,0.000233122035826,-0.000121135694121,0.000152659546069,0.0,0.0,0.0,1.0
1609046840323973277,587,1609046840323651027,0.000158462488024,-5.12167760629e-05,0.000113882355464,0.0,0.0,0.0,1.0
1609046840371434522,588,1609046840371103954,0.00019201444173,8.02072368877e-06,8.64944335461e-05,0.0,0.0,0.0,1.0
1609046840422718102,589,1609046840422040891,-4.96929377647e-07,-3.1040499282e-05,0.000203791741338,0.0,0.0,0.0,1.0
1609046840474248356,590,1609046840473989915,0.000149206682128,-0.000221856473603,2.82108465317e-05,0.0,0.0,0.0,1.0
1609046840522659861,591,1609046840522263002,5.5615970048e-05,-0.000159033552402,0.00024240472294,0.0,0.0,0.0,1.0
1609046840572474443,592,1609046840572076034,-6.09375816225e-05,-0.000144279863612,0.000249185605687,0.0,0.0,0.0,1.0
1609046840623342432,593,1609046840622775983,9.94168016781e-05,-0.000336613203899,0.000274242919868,0.0,0.0,0.0,1.0
1609046840673073339,594,1609046840672587108,0.000140342739009,-0.000202779106418,0.000278039012287,0.0,0.0,0.0,1.0
1609046840726350441,595,1609046840724960994,1.80432530321e-05,-0.000174965351102,8.19192180703e-05,0.0,0.0,0.0,1.0
1609046840770953087,596,1609046840770633888,3.7990763726e-05,-0.000170052572631,4.73253613542e-05,0.0,0.0,0.0,1.0
1609046840822374642,597,1609046840822104883,1.08339693519e-05,-0.000335291485619,0.000220237462898,0.0,0.0,0.0,1.0
1609046840871098692,598,1609046840870809984,3.80580394648e-05,-0.000157143001871,5.49986104481e-05,0.0,0.0,0.0,1.0
1609046840923226451,599,1609046840922810983,8.47240229973e-05,-0.000188733724947,0.000169647419007,0.0,0.0,0.0,1.0
1609046840974450552,600,1609046840974035930,0.000142001503402,-4.24632171718e-05,0.000150168187655,0.0,0.0,0.0,1.0
1609046841020866262,601,1609046841020522069,0.000139492120329,-4.20720152334e-05,0.000155129857301,0.0,0.0,0.0,1.0
1609046841072603301,602,1609046841072194051,0.000216792224698,-8.51889156834e-05,0.000205128712432,0.0,0.0,0.0,1.0
1609046841123722264,603,1609046841123330068,0.000167517966442,-0.000225670509543,-8.57431326473e-06,0.0,0.0,0.0,1.0
1609046841173800122,604,1609046841173305940,6.83060479503e-05,-0.000206822286554,0.000189634346928,0.0,0.0,0.0,1.0
1609046841223316030,605,1609046841223003101,7.02936259458e-05,-0.000187292565609,0.000197691495323,0.0,0.0,0.0,1.0
1609046841272604741,606,1609046841271548938,6.38866435807e-05,-0.000182149538492,0.000212863691216,0.0,0.0,0.0,1.0
1609046841322918454,607,1609046841322617959,5.98667499041e-05,-0.000181480211239,0.000220837830183,0.0,0.0,0.0,1.0
1609046841377098214,608,1609046841376768064,-2.36211818532e-05,-0.000127903845058,0.000188810541431,0.0,0.0,0.0,1.0
1609046841429605242,609,1609046841428889942,-2.91931023888e-05,-0.000130103589107,0.000197973759594,0.0,0.0,0.0,1.0
1609046841476734563,610,1609046841476072978,-5.17614147455e-05,-0.000123429844058,0.000466118123605,0.0,0.0,0.0,1.0
1609046841522281567,611,1609046841521974039,4.34107830642e-05,-0.000231598228957,0.000443157300507,0.0,0.0,0.0,1.0
1609046841571880816,612,1609046841571499061,-0.000148946122415,-0.000270775723802,0.000338484095531,0.0,0.0,0.0,1.0
1609046841624421710,613,1609046841623732995,-0.000134666413455,-0.000258758868391,0.000318854643915,0.0,0.0,0.0,1.0
1609046841671685499,614,1609046841671352100,-7.00801378173e-06,-0.000158209069788,0.000360828906215,0.0,0.0,0.0,1.0
1609046841723001011,615,1609046841722408962,-5.77661167398e-05,-0.000281868776991,0.000381695092134,0.0,0.0,0.0,1.0
1609046841773493176,616,1609046841772855949,5.2568375299e-05,-0.000174497942933,0.000238799889996,0.0,0.0,0.0,1.0
1609046841822652397,617,1609046841822185945,-3.52678779869e-05,-0.000142271868333,0.000202060849709,0.0,0.0,0.0,1.0
1609046841873146612,618,1609046841872827959,-6.45740444689e-05,-0.000144507686562,0.000255895705477,0.0,0.0,0.0,1.0
1609046841922750588,619,1609046841922381114,-9.53697832884e-06,-6.15689093522e-05,0.000202369143702,0.0,0.0,0.0,1.0
1609046841972967417,620,1609046841972078037,0.000167043859758,-3.74673307331e-05,0.000106030771208,0.0,0.0,0.0,1.0
1609046842022219854,621,1609046842021949958,0.000136483713558,-0.000125894393976,0.000110148796837,0.0,0.0,0.0,1.0
1609046842070504863,622,1609046842070270013,7.35086067358e-05,-0.000102056687902,0.00024313751409,0.0,0.0,0.0,1.0
1609046842123671010,623,1609046842123321008,1.21400130837e-07,-4.70021330692e-05,0.00019298316346,0.0,0.0,0.0,1.0
1609046842174544217,624,1609046842174127054,9.77838481937e-05,-4.59584441259e-06,0.000256312730015,0.0,0.0,0.0,1.0
1609046842223072733,625,1609046842222263050,7.22646989288e-05,-9.47122578321e-05,0.000249917461593,0.0,0.0,0.0,1.0
1609046842272181411,626,1609046842271814060,9.48379461541e-05,-3.9260677319e-05,0.0002409150209,0.0,0.0,0.0,1.0
1609046842323044295,627,1609046842322137069,0.000186550280414,-5.88695039845e-05,0.000277978630468,0.0,0.0,0.0,1.0
1609046842372399921,628,1609046842372158002,9.41391565235e-06,-4.14191089071e-06,0.000201381446926,0.0,0.0,0.0,1.0
1609046842421182611,629,1609046842420614910,5.00982618945e-05,-0.000175379060083,0.000242918913408,0.0,0.0,0.0,1.0
1609046842472776421,630,1609046842472456884,0.000100815463011,-4.45285202115e-05,0.000226476053825,0.0,0.0,0.0,1.0
1609046842523511035,631,1609046842523184013,0.000189936256831,-3.99608509092e-05,0.000283027510623,0.0,0.0,0.0,1.0
1609046842572189341,632,1609046842571367931,1.3679286802e-05,9.08131159072e-06,0.000201339139124,0.0,0.0,0.0,1.0
1609046842623936759,633,1609046842623454046,0.000100261964629,-1.74501922601e-06,0.000253368783316,0.0,0.0,0.0,1.0
1609046842674503100,634,1609046842673422050,9.69110333493e-05,-1.68186227878e-05,0.00025057109101,0.0,0.0,0.0,1.0
1609046842723458276,635,1609046842722834062,9.69710757488e-05,-2.58772925168e-05,0.000244984634172,0.0,0.0,0.0,1.0
1609046842772661762,636,1609046842772319030,9.88319623865e-05,-2.33582950031e-05,0.000243002475502,0.0,0.0,0.0,1.0
1609046842825732614,637,1609046842825463962,9.73234006452e-05,-5.09990007735e-05,0.000229142287003,0.0,0.0,0.0,1.0
1609046842872720142,638,1609046842872034025,0.000161282965159,-5.54837457525e-05,0.000105993130502,0.0,0.0,0.0,1.0
1609046842924910752,639,1609046842924433898,0.000160776991638,-7.54612718286e-05,9.4875347564e-05,0.0,0.0,0.0,1.0
1609046842975460905,640,1609046842975161027,0.000184134976411,-6.84689583341e-05,0.000276726681035,0.0,0.0,0.0,1.0
1609046843022632072,641,1609046843022078943,0.000181271219859,-5.86301246859e-05,0.000288064092729,0.0,0.0,0.0,1.0
1609046843074291834,642,1609046843073831987,7.01925707887e-05,-3.40789022797e-05,6.88434585197e-05,0.0,0.0,0.0,1.0
1609046843122450575,643,1609046843121874046,0.000187318593497,-5.95609551191e-05,0.000276114061258,0.0,0.0,0.0,1.0
1609046843174457478,644,1609046843174096059,5.5801209303e-05,-0.000186066096072,0.000225722712331,0.0,0.0,0.0,1.0
1609046843223067779,645,1609046843222712945,0.000160598839898,-6.35133528899e-05,0.000102429822777,0.0,0.0,0.0,1.0
1609046843272126927,646,1609046843271800947,0.000248055339753,-8.05565474362e-05,0.000149057626846,0.0,0.0,0.0,1.0
1609046843324129419,647,1609046843323832941,0.000151063534144,-5.17440492995e-05,0.000127496356344,0.0,0.0,0.0,1.0
1609046843371044359,648,1609046843370558929,6.1297729129e-05,-0.000125749089371,0.000251816286326,0.0,0.0,0.0,1.0
1609046843423864067,649,1609046843423561048,9.67424226914e-05,-3.62871540318e-05,0.000239125408493,0.0,0.0,0.0,1.0
1609046843474444547,650,1609046843474136066,0.000104382087503,-1.92209220788e-05,0.000235051082473,0.0,0.0,0.0,1.0
1609046843521982352,651,1609046843521696043,0.000126479527033,5.90333549706e-05,0.000240722821843,0.0,0.0,0.0,1.0
1609046843572743867,652,1609046843571726989,0.000145862498844,-5.25362934098e-05,0.000358423327031,0.0,0.0,0.0,1.0
1609046843625613818,653,1609046843625276041,9.80559687029e-05,-3.02379020329e-05,0.000240306960158,0.0,0.0,0.0,1.0
1609046843672830329,654,1609046843672438097,8.59206737083e-05,-9.46447886943e-05,0.000224243091585,0.0,0.0,0.0,1.0
1609046843724301625,655,1609046843723682117,7.6046575149e-05,-0.000101658698185,0.000238598813125,0.0,0.0,0.0,1.0
1609046843772142307,656,1609046843771346044,3.33480906107e-05,-1.01208044931e-05,0.000374312110017,0.0,0.0,0.0,1.0
1609046843822482421,657,1609046843822111082,7.26808821732e-05,-0.000173456112178,0.000423169011938,0.0,0.0,0.0,1.0
1609046843873502128,658,1609046843872921895,3.15486422551e-05,-9.29098761304e-06,0.000378202027241,0.0,0.0,0.0,1.0
1609046843922703606,659,1609046843922455024,3.85533734395e-05,7.60079472428e-06,0.000375217889131,0.0,0.0,0.0,1.0
1609046843974471186,660,1609046843974224996,9.95960025136e-05,-1.83345246771e-05,0.000244599177595,0.0,0.0,0.0,1.0
1609046844021845933,661,1609046844021499109,0.000144783291773,0.00011829212956,0.000242061180447,0.0,0.0,0.0,1.0
1609046844073058554,662,1609046844072838973,0.00010187746761,-2.32277461443e-05,0.000237346463573,0.0,0.0,0.0,1.0
1609046844124092165,663,1609046844123650026,0.000184098623077,-5.37923924995e-05,0.000285662932022,0.0,0.0,0.0,1.0
1609046844174820917,664,1609046844173968982,1.40015075694e-05,-7.15272620333e-06,0.000190923520943,0.0,0.0,0.0,1.0
1609046844223126739,665,1609046844222342920,9.8143885964e-05,-4.11075154183e-05,0.000233573828025,0.0,0.0,0.0,1.0
1609046844274293155,666,1609046844273637008,0.000103162080944,-4.76987444582e-05,0.000220141728315,0.0,0.0,0.0,1.0
1609046844322263087,667,1609046844321777057,0.000138580714783,-0.000200706903001,0.000282609062188,0.0,0.0,0.0,1.0
1609046844371513589,668,1609046844371246051,9.71951973696e-05,-3.81907082172e-05,0.000237122648358,0.0,0.0,0.0,1.0
1609046844421247894,669,1609046844420952987,0.000185437280791,-6.75019889673e-05,0.00027485861202,0.0,0.0,0.0,1.0
1609046844474450796,670,1609046844473952960,9.50295166611e-05,-4.51094762877e-05,0.000237020353696,0.0,0.0,0.0,1.0
1609046844523922328,671,1609046844523555946,7.76042302846e-05,-2.94783030981e-05,5.7666679746e-05,0.0,0.0,0.0,1.0
1609046844570618308,672,1609046844570110988,0.000180558583924,-6.39885290674e-05,0.00028616840722,0.0,0.0,0.0,1.0
1609046844623219075,673,1609046844622555923,0.000100733023508,-3.80193102227e-05,0.000230564247035,0.0,0.0,0.0,1.0
1609046844673834774,674,1609046844673063945,0.000267277940704,-9.22751072352e-05,0.000327390904342,0.0,0.0,0.0,1.0
1609046844723223424,675,1609046844722726058,0.00010276430498,-4.54816776987e-05,0.000222230346893,0.0,0.0,0.0,1.0
1609046844772684909,676,1609046844772412967,0.000100681750105,-3.47820281448e-05,0.000232616810131,0.0,0.0,0.0,1.0
1609046844822289831,677,1609046844821927022,9.96442191514e-05,-3.95819230246e-05,0.000231670385144,0.0,0.0,0.0,1.0
1609046844872994195,678,1609046844872564983,1.40040551102e-05,-8.34448677089e-06,0.000190198644736,0.0,0.0,0.0,1.0
1609046844924468463,679,1609046844924167108,9.89300659988e-05,-4.15713897066e-05,0.000231813119411,0.0,0.0,0.0,1.0
1609046844972373752,680,1609046844972058010,0.000102266098125,-3.9683984701e-05,0.000226671547175,0.0,0.0,0.0,1.0
1609046845022914000,681,1609046845022650909,9.88741356309e-05,-3.34612445894e-05,0.000236818705371,0.0,0.0,0.0,1.0
1609046845074577796,682,1609046845074275922,9.95994751669e-05,-3.70199803612e-05,0.000233302602989,0.0,0.0,0.0,1.0
1609046845122306866,683,1609046845122040939,0.00018139137093,-7.0002630725e-05,0.000280966406981,0.0,0.0,0.0,1.0
1609046845175257304,684,1609046845174636077,0.000100388140293,-3.90083622861e-05,0.000230616085791,0.0,0.0,0.0,1.0
1609046845223061226,685,1609046845222779941,0.000180822774237,-6.36575563373e-05,0.000285870897496,0.0,0.0,0.0,1.0
1609046845273186735,686,1609046845272619915,0.00017978866946,-5.57394303371e-05,0.000292602438142,0.0,0.0,0.0,1.0
1609046845323552132,687,1609046845323249053,0.000186087405517,-6.88360215726e-05,0.00027282834346,0.0,0.0,0.0,1.0
1609046845372640580,688,1609046845371564102,9.79895295927e-05,-3.69549706534e-05,0.000236373517835,0.0,0.0,0.0,1.0
1609046845424128837,689,1609046845423824977,1.11468036508e-05,-1.10547625791e-05,0.000193941453508,0.0,0.0,0.0,1.0
1609046845472770606,690,1609046845472536039,0.000186386608675,-6.50278656877e-05,0.000274565864839,0.0,0.0,0.0,1.0
1609046845522656214,691,1609046845522335958,8.83324338474e-05,-3.64020952741e-05,0.00025489254725,0.0,0.0,0.0,1.0
1609046845572296470,692,1609046845571994018,8.75293620766e-05,-3.80580557842e-05,0.000255404231327,0.0,0.0,0.0,1.0
1609046845623582379,693,1609046845622631978,4.722058776e-05,-0.000179499082194,0.000245848442317,0.0,0.0,0.0,1.0
1609046845674037461,694,1609046845673305940,5.35260741508e-05,-0.000177030373683,0.000235466369189,0.0,0.0,0.0,1.0
1609046845725014627,695,1609046845724338960,0.000166451331882,-5.09594918316e-05,9.89944531238e-05,0.0,0.0,0.0,1.0
1609046845770383458,696,1609046845769895029,0.000200800013598,-0.000227126292584,0.00014948380549,0.0,0.0,0.0,1.0
1609046845823093372,697,1609046845822790098,0.000223699775823,-0.000230075734397,0.000326191131233,0.0,0.0,0.0,1.0
1609046845873648673,698,1609046845873218011,5.99740424754e-05,-0.000177844152219,0.000222832711545,0.0,0.0,0.0,1.0
1609046845927866016,699,1609046845927535009,5.61799017653e-05,-0.000168536183676,0.000235601256739,0.0,0.0,0.0,1.0
1609046845972643799,700,1609046845972301912,-2.67456785323e-05,-0.000161111729199,0.000174629828534,0.0,0.0,0.0,1.0
1609046846021105015,701,1609046846020857048,-2.74067732846e-05,-0.000160909082682,0.000175997154409,0.0,0.0,0.0,1.0
1609046846074150802,702,1609046846073835086,0.000141638261756,-0.00021012418201,0.000271161528499,0.0,0.0,0.0,1.0
1609046846124772179,703,1609046846124362897,6.56700321606e-05,-0.000196260497928,0.000200979577244,0.0,0.0,0.0,1.0
1609046846175231225,704,1609046846174699974,0.000187387212307,-6.90804046837e-05,0.000270233062567,0.0,0.0,0.0,1.0
1609046846221901966,705,1609046846221576881,5.97296121505e-05,-0.000193607465093,0.000213768746381,0.0,0.0,0.0,1.0
1609046846272574204,706,1609046846272352886,5.96882636756e-05,-0.000157379440726,0.000235735732202,0.0,0.0,0.0,1.0
1609046846324022100,707,1609046846323753070,5.9238803928e-05,-0.000137219698146,0.000248762752177,0.0,0.0,0.0,1.0
1609046846374018024,708,1609046846373789024,0.000180555689138,-5.29110427365e-05,0.000292867043163,0.0,0.0,0.0,1.0
1609046846424592728,709,1609046846423505973,0.000100716644063,-2.57836912407e-05,0.000237988030905,0.0,0.0,0.0,1.0
1609046846472682584,710,1609046846472284030,5.32413561807e-05,-0.000169168218179,0.000240752866185,0.0,0.0,0.0,1.0
1609046846523650299,711,1609046846523290109,0.000141851321523,-0.000173994061957,0.000292590337137,0.0,0.0,0.0,1.0
1609046846571707144,712,1609046846571126890,-3.04423387085e-05,-0.000142359573388,0.000192921024317,0.0,0.0,0.0,1.0
1609046846627443803,713,1609046846626654100,5.41379717198e-05,-0.000175459076914,0.000235263507944,0.0,0.0,0.0,1.0
1609046846674404479,714,1609046846673835945,-3.15744315387e-05,-0.000151973602264,0.000189243992665,0.0,0.0,0.0,1.0
1609046846722217243,715,1609046846721317958,-3.32547225064e-05,-0.000143781249548,0.000197357957759,0.0,0.0,0.0,1.0
1609046846773411364,716,1609046846771877002,5.52657612047e-05,-0.000161794388937,0.000241396077058,0.0,0.0,0.0,1.0
1609046846821164172,717,1609046846820827913,5.4950369023e-05,-0.000164454362618,0.000240382811473,0.0,0.0,0.0,1.0
1609046846874313009,718,1609046846874058914,0.00017631872057,-5.58394933723e-05,0.000299076132695,0.0,0.0,0.0,1.0
1609046846923881647,719,1609046846923628997,0.000178734281082,-4.97456803057e-05,0.000298209442743,0.0,0.0,0.0,1.0
1609046846972228005,720,1609046846971706104,9.87077542618e-05,-3.04040181813e-05,0.000238979234119,0.0,0.0,0.0,1.0
1609046847023389038,721,1609046847022654008,0.000106893946072,-2.24345426005e-05,0.000228379368481,0.0,0.0,0.0,1.0
1609046847074239835,722,1609046847073791933,0.00024395220359,-8.16109241928e-05,0.000156146956801,0.0,0.0,0.0,1.0
1609046847130201984,723,1609046847129586887,0.000244718360733,-8.07255894468e-05,0.000155239173768,0.0,0.0,0.0,1.0
1609046847173354396,724,1609046847173150014,0.000150810090428,-8.4609388324e-05,0.000108116129256,0.0,0.0,0.0,1.0
1609046847220799919,725,1609046847220482063,8.74953792653e-05,-3.6762302269e-05,0.000256251137296,0.0,0.0,0.0,1.0
1609046847272124045,726,1609046847271656942,0.000176434428568,-4.86532670223e-05,0.0003032002798,0.0,0.0,0.0,1.0
1609046847328106068,727,1609046847327774953,-2.76498945979e-05,0.000137635967015,0.000135227874573,0.0,0.0,0.0,1.0
1609046847383050299,728,1609046847382671070,0.00016438052327,-4.36241879154e-05,0.000107325927846,0.0,0.0,0.0,1.0
1609046847426920462,729,1609046847426676940,4.98317271571e-05,-0.000173309561472,0.000244671218901,0.0,0.0,0.0,1.0
1609046847473355239,730,1609046847472999048,-3.32386352078e-05,-0.00013340851606,0.000203594929337,0.0,0.0,0.0,1.0
1609046847522748329,731,1609046847522292089,5.48116886279e-05,-0.000153460814252,0.000247286326037,0.0,0.0,0.0,1.0
1609046847575432695,732,1609046847574919891,-3.12722839695e-05,-0.000135814571355,0.000198438396172,0.0,0.0,0.0,1.0
1609046847626265450,733,1609046847625672054,0.000101020407168,-2.45675824466e-05,0.000238150816129,0.0,0.0,0.0,1.0
1609046847673366881,734,1609046847672687005,0.000188178252824,-6.0179272344e-05,0.00027412166993,0.0,0.0,0.0,1.0
1609046847724390309,735,1609046847723982048,7.18882418482e-05,-0.000113111739205,0.000239509205121,0.0,0.0,0.0,1.0
1609046847772083644,736,1609046847771470975,7.3906890762e-05,-0.000174598584527,0.000198557224351,0.0,0.0,0.0,1.0
1609046847824913069,737,1609046847824279975,0.000151581589162,-4.78023176136e-05,0.00012890246273,0.0,0.0,0.0,1.0
1609046847874335115,738,1609046847873785924,9.92796284045e-05,-3.19614319295e-05,0.000236961344157,0.0,0.0,0.0,1.0
1609046847922607093,739,1609046847922109079,1.15760231303e-05,-1.25394784867e-06,0.000199055001968,0.0,0.0,0.0,1.0
1609046847972902778,740,1609046847972589921,9.27751966024e-05,-2.45369905993e-05,0.000253695595587,0.0,0.0,0.0,1.0
1609046848021192850,741,1609046848020910930,4.55562130206e-05,-0.000171617941497,0.000253744407015,0.0,0.0,0.0,1.0
1609046848073300171,742,1609046848072874021,9.80634059466e-05,-2.02855519618e-05,0.00024630631952,0.0,0.0,0.0,1.0
1609046848123897751,743,1609046848123563957,0.000137582626799,-0.00019775328653,0.000286273122301,0.0,0.0,0.0,1.0
1609046848171220971,744,1609046848170902919,5.22785580124e-05,-0.000166455877277,0.000244204694747,0.0,0.0,0.0,1.0
1609046848222314268,745,1609046848221879911,-3.10134910251e-05,-0.000143588737807,0.000193253876883,0.0,0.0,0.0,1.0
1609046848273252500,746,1609046848272422027,9.50142509133e-05,-3.23147997463e-05,0.000244779828655,0.0,0.0,0.0,1.0
1609046848323714479,747,1609046848323150110,0.000157431522435,-4.07846700021e-05,0.000122126882006,0.0,0.0,0.0,1.0
1609046848372808804,748,1609046848372193050,0.000100110505286,-1.81314807648e-05,0.000243753016303,0.0,0.0,0.0,1.0
1609046848423752219,749,1609046848423114013,9.95589459585e-05,-1.95863771832e-05,0.000243912568314,0.0,0.0,0.0,1.0
1609046848473172206,750,1609046848472372961,0.00023934030153,-6.54293816869e-05,0.000174608418586,0.0,0.0,0.0,1.0
1609046848525747375,751,1609046848525217962,9.8954021059e-05,-1.24213725794e-05,0.000249380895756,0.0,0.0,0.0,1.0
1609046848575923999,752,1609046848575605106,0.00019194889374,-5.65112407713e-05,0.000269237584437,0.0,0.0,0.0,1.0
1609046848622812189,753,1609046848622600984,0.000158068440783,-4.1000179003e-05,0.000120797321854,0.0,0.0,0.0,1.0
1609046848673162227,754,1609046848672212076,0.000247993913884,-7.11237638988e-05,0.000154872658621,0.0,0.0,0.0,1.0
1609046848723075284,755,1609046848722749900,7.69054683332e-05,-1.83646346752e-05,6.56974465283e-05,0.0,0.0,0.0,1.0
1609046848775069802,756,1609046848774793100,0.000130284924065,-2.83693829104e-05,0.000180746807773,0.0,0.0,0.0,1.0
1609046848824147694,757,1609046848823459100,4.50392906686e-05,0.000129236506027,0.000214886362555,0.0,0.0,0.0,1.0
1609046848872932002,758,1609046848872559976,-1.5804910106e-05,0.000127103041274,0.000328171612614,0.0,0.0,0.0,1.0
1609046848924220191,759,1609046848923723888,3.62269968264e-05,-6.91905487038e-06,0.000370825440092,0.0,0.0,0.0,1.0
1609046848973509992,760,1609046848972809028,7.79071428454e-05,-2.24378104914e-05,0.000282961573363,0.0,0.0,0.0,1.0
1609046849023665275,761,1609046849023263883,5.98651965973e-05,-1.35078361971e-05,0.000322331618547,0.0,0.0,0.0,1.0
1609046849107825009,762,1609046849107521963,5.33956701787e-05,-0.000168691977377,0.000240750029249,0.0,0.0,0.0,1.0
1609046849173842269,763,1609046849173617076,0.00012657113118,-4.26078229161e-05,0.000179137055472,0.0,0.0,0.0,1.0
1609046849221581849,764,1609046849221161079,9.56893842208e-05,-2.55592669109e-05,0.000247590303124,0.0,0.0,0.0,1.0
1609046849273321739,765,1609046849272920083,9.65097616614e-05,-2.30409816275e-05,0.000247567063688,0.0,0.0,0.0,1.0
1609046849325608236,766,1609046849325108957,9.63861362884e-05,-2.92603581311e-05,0.000244042014769,0.0,0.0,0.0,1.0
1609046849372599701,767,1609046849371821117,-3.43986879727e-05,1.37687470101e-05,0.000294705862821,0.0,0.0,0.0,1.0
1609046849421710643,768,1609046849421040964,3.51605761786e-05,1.47621497248e-06,0.000377906217816,0.0,0.0,0.0,1.0
1609046849472430514,769,1609046849472056102,5.01284311838e-05,-1.15048962837e-05,0.000341876969793,0.0,0.0,0.0,1.0
1609046849525216576,770,1609046849524914932,0.000211087508138,-0.000202178064212,0.000145185635857,0.0,0.0,0.0,1.0
1609046849573842600,771,1609046849573526096,4.84632066957e-05,-0.000175266111802,0.00024606608325,0.0,0.0,0.0,1.0
1609046849622754239,772,1609046849622224998,9.61803591615e-05,-2.80844503493e-05,0.000245140008637,0.0,0.0,0.0,1.0
1609046849673610293,773,1609046849673258018,0.000100309986884,-2.07072966987e-05,0.000241821030032,0.0,0.0,0.0,1.0
1609046849723618515,774,1609046849723133039,9.54951956444e-06,-3.91696973168e-06,0.000201262008332,0.0,0.0,0.0,1.0
1609046849773501291,775,1609046849773039054,9.84361030945e-05,-2.94788041675e-05,0.000240049799785,0.0,0.0,0.0,1.0
1609046849823670196,776,1609046849823186111,0.000245164607016,-7.04453242566e-05,0.000160610293442,0.0,0.0,0.0,1.0
1609046849872614054,777,1609046849872113895,0.000165741056254,-3.94140309421e-05,0.000107307795632,0.0,0.0,0.0,1.0
1609046849923014870,778,1609046849922757101,7.9335717782e-05,-1.63517775889e-05,6.23373610633e-05,0.0,0.0,0.0,1.0
1609046849973503770,779,1609046849973224115,0.000101429527525,-2.27229826031e-05,0.000238494950688,0.0,0.0,0.0,1.0
1609046850022323181,780,1609046850022011947,-6.14767030171e-06,-0.000114494953257,0.000385621446855,0.0,0.0,0.0,1.0
1609046850073437721,781,1609046850072936964,9.55003242353e-05,-3.49734629648e-05,0.000242258115467,0.0,0.0,0.0,1.0
1609046850123528976,782,1609046850123157930,-7.04953990827e-05,3.26291465687e-05,0.000152461631835,0.0,0.0,0.0,1.0
1609046850172042045,783,1609046850171808910,9.38612321697e-05,-2.86257018161e-05,0.00024918005156,0.0,0.0,0.0,1.0
1609046850223428759,784,1609046850223164033,0.000178052910101,-5.65225415698e-05,0.000295397824832,0.0,0.0,0.0,1.0
1609046850274082610,785,1609046850273771953,9.71201040514e-05,-2.89383844869e-05,0.000242854444899,0.0,0.0,0.0,1.0
1609046850323486420,786,1609046850323239994,0.000266769185,-8.01581381822e-05,0.000335670179856,0.0,0.0,0.0,1.0
1609046850373033442,787,1609046850372698020,6.0285190866e-05,-0.000138109157289,0.000246254912906,0.0,0.0,0.0,1.0
1609046850421695109,788,1609046850421312046,-2.65937716861e-05,-0.00010997460504,0.000205241109455,0.0,0.0,0.0,1.0
1609046850474967432,789,1609046850474554967,0.00018268001908,-5.37983312263e-05,0.000288330671191,0.0,0.0,0.0,1.0
1609046850524733746,790,1609046850524382066,0.000226568169342,8.71885709444e-05,0.000290873524175,0.0,0.0,0.0,1.0
1609046850573653051,791,1609046850573006105,0.000111481156846,7.30834709177e-05,0.000277455178734,0.0,0.0,0.0,1.0
1609046850624198838,792,1609046850623729896,5.01895572391e-05,3.69437835666e-05,0.000371035668847,0.0,0.0,0.0,1.0
1609046850672352902,793,1609046850672074985,-9.86237556653e-05,-0.000118845040753,0.00033551992426,0.0,0.0,0.0,1.0
1609046850725420185,794,1609046850725022029,1.40110928406e-05,-2.41445646232e-06,0.000193768403822,0.0,0.0,0.0,1.0
1609046850772737281,795,1609046850772428941,0.000182616242554,-5.10067682296e-05,0.000290137472492,0.0,0.0,0.0,1.0
1609046850824456369,796,1609046850824150037,0.000152127476508,-3.8092680164e-05,0.000133741185229,0.0,0.0,0.0,1.0
1609046850872866452,797,1609046850872590017,9.90934768197e-06,3.66459010692e-06,0.000205165323671,0.0,0.0,0.0,1.0
1609046850922152440,798,1609046850921489906,0.000100829681955,-1.53443863624e-05,0.000244082765185,0.0,0.0,0.0,1.0
1609046850974084941,799,1609046850973730039,0.000272575313826,-7.1662493685e-05,0.000329870048059,0.0,0.0,0.0,1.0
1609046851022856697,800,1609046851022604894,0.000183167986123,-4.9816785717e-05,0.000289817507864,0.0,0.0,0.0,1.0
1609046851073943854,801,1609046851073708009,0.000169410487871,-4.00698889926e-05,0.000321613088426,0.0,0.0,0.0,1.0
1609046851123227144,802,1609046851122944068,-2.04798210071e-05,-0.000105520758762,0.000196419156127,0.0,0.0,0.0,1.0
1609046851170793753,803,1609046851170309019,0.000186293693417,-5.00628564755e-05,0.000283782909852,0.0,0.0,0.0,1.0
1609046851222615764,804,1609046851222130012,8.93112349658e-05,-5.97967997908e-05,0.000238913987872,0.0,0.0,0.0,1.0
1609046851273465437,805,1609046851273189973,-4.86734344705e-05,2.91093076878e-05,0.000330855551265,0.0,0.0,0.0,1.0
1609046851323235713,806,1609046851322973918,0.000132093723202,-3.46527126833e-05,0.000395156685375,0.0,0.0,0.0,1.0
1609046851372621129,807,1609046851372193050,9.95346860186e-05,-2.44532247624e-05,0.000241017625736,0.0,0.0,0.0,1.0
1609046851422209335,808,1609046851421827030,0.000180632436521,-5.10028433354e-05,0.000293875486701,0.0,0.0,0.0,1.0
1609046851473408779,809,1609046851472825956,7.7060340729e-05,-1.29338336698e-05,6.86871519449e-05,0.0,0.0,0.0,1.0
1609046851523558057,810,1609046851523311090,4.92768671663e-05,-0.000173456432172,0.000245627319964,0.0,0.0,0.0,1.0
1609046851572140907,811,1609046851571767997,0.000134696857106,-0.00019355026928,0.000294246719264,0.0,0.0,0.0,1.0
1609046851624087026,812,1609046851623686027,0.000100593102033,-2.309403048e-05,0.000239845803231,0.0,0.0,0.0,1.0
1609046851674165017,813,1609046851673356008,-3.37392474954e-05,-0.000143121348083,0.000198669068771,0.0,0.0,0.0,1.0
1609046851722640109,814,1609046851722353887,0.000187633846902,-4.17617998494e-05,0.000286274940464,0.0,0.0,0.0,1.0
1609046851773675221,815,1609046851773277950,0.000177010681824,-6.16665249691e-05,0.000294252339263,0.0,0.0,0.0,1.0
1609046851823144094,816,1609046851822354984,1.26723696674e-05,1.60325413692e-05,0.000207435281114,0.0,0.0,0.0,1.0
1609046851872223515,817,1609046851871842098,3.73715596638e-05,-3.48088841307e-06,0.000370747543164,0.0,0.0,0.0,1.0
1609046851924203467,818,1609046851923778009,0.000138929839739,-0.000186802161485,0.000290352956709,0.0,0.0,0.0,1.0
1609046851975003759,819,1609046851974672031,9.66124730901e-05,-2.31355031044e-05,0.000247316539651,0.0,0.0,0.0,1.0
1609046852023814833,820,1609046852023293924,9.15524094189e-05,-3.70982050004e-05,0.000248408509034,0.0,0.0,0.0,1.0
1609046852072734547,821,1609046852072443914,1.28751698654e-05,6.93623582215e-06,0.000201557257078,0.0,0.0,0.0,1.0
1609046852121576628,822,1609046852121252012,0.00010182904256,-2.44067910842e-05,0.000236725254149,0.0,0.0,0.0,1.0
1609046852176562743,823,1609046852175969076,0.000331879815707,-9.68181114374e-05,0.000202996973474,0.0,0.0,0.0,1.0
1609046852223661016,824,1609046852223165941,0.000111525163799,-2.55618968747e-05,0.000217768893208,0.0,0.0,0.0,1.0
1609046852272665149,825,1609046852272071075,0.000113151279987,-0.000185038779087,0.000118349822685,0.0,0.0,0.0,1.0
1609046852325252277,826,1609046852324950885,0.00027773787275,-0.00023546561064,0.000221177508422,0.0,0.0,0.0,1.0
1609046852371466012,827,1609046852371200037,9.90815445192e-05,-7.34613718727e-05,0.000212259554786,0.0,0.0,0.0,1.0
1609046852423648739,828,1609046852423197937,4.92888643997e-05,-0.000110096378043,0.000283887395138,0.0,0.0,0.0,1.0
1609046852472508646,829,1609046852471847963,0.000135657155585,9.30508010253e-05,0.000243994854406,0.0,0.0,0.0,1.0
1609046852523310219,830,1609046852522637081,9.44124184592e-05,-1.72009067594e-05,0.000255045173947,0.0,0.0,0.0,1.0
1609046852574190909,831,1609046852573636007,0.00013999003033,0.000119268869085,0.000251677376051,0.0,0.0,0.0,1.0
1609046852626510199,832,1609046852625887107,0.000140928119063,0.000120301095691,0.000250534591174,0.0,0.0,0.0,1.0
1609046852672574181,833,1609046852672225904,0.000142564383626,0.000119100519878,0.000246727978679,0.0,0.0,0.0,1.0
1609046852724379365,834,1609046852723885011,0.00024555125205,8.77702876956e-05,0.000255478685688,0.0,0.0,0.0,1.0
1609046852771685316,835,1609046852771381092,0.00024323799666,8.69602605675e-05,0.000259345245555,0.0,0.0,0.0,1.0
1609046852822392428,836,1609046852822013092,0.000141415715728,0.000117102971751,0.000247684025503,0.0,0.0,0.0,1.0
1609046852872627086,837,1609046852872228097,0.000180230335488,-4.57626587451e-05,0.000297798874657,0.0,0.0,0.0,1.0
1609046852923366882,838,1609046852922728013,9.65413422094e-05,-2.12308777545e-05,0.000248601288945,0.0,0.0,0.0,1.0
1609046852974200330,839,1609046852973727893,0.000146820284186,0.000126047517867,0.000242911398066,0.0,0.0,0.0,1.0
1609046853022380903,840,1609046853021830987,0.00023429918879,9.85942693656e-05,0.000283207131652,0.0,0.0,0.0,1.0
1609046853073768729,841,1609046853073162031,0.000214690195737,0.000111317993317,0.000106208838604,0.0,0.0,0.0,1.0
1609046853125173214,842,1609046853124880981,0.000139030199282,0.000117161729623,0.000252211613155,0.0,0.0,0.0,1.0
1609046853176755745,843,1609046853175415945,0.000125634748603,-2.83002809134e-05,0.000411157773895,0.0,0.0,0.0,1.0
1609046853222991679,844,1609046853222628068,0.000204777551911,9.52837363428e-05,0.000115186568385,0.0,0.0,0.0,1.0
1609046853274371257,845,1609046853273843002,0.000143710153271,0.000119152077584,0.000244601572311,0.0,0.0,0.0,1.0
1609046853323738489,846,1609046853323338937,0.000159180234313,-7.18319396675e-06,0.000139136347402,0.0,0.0,0.0,1.0
1609046853375281267,847,1609046853374448013,0.000224666910295,9.75252483801e-05,0.000300699409326,0.0,0.0,0.0,1.0
1609046853424659956,848,1609046853424328041,0.000224325682819,9.97726768901e-05,0.000302699919684,0.0,0.0,0.0,1.0
1609046853473443170,849,1609046853473008108,0.000272182695678,-7.0254708433e-05,0.000331459980814,0.0,0.0,0.0,1.0
1609046853523961184,850,1609046853523635101,1.51969823499e-05,1.51206259051e-05,0.000202130267221,0.0,0.0,0.0,1.0
1609046853571418324,851,1609046853571119022,6.9119296537e-05,-9.31913591984e-06,0.000307436304569,0.0,0.0,0.0,1.0
1609046853625630813,852,1609046853625230979,0.000144392920433,6.10653814288e-05,0.000429831521497,0.0,0.0,0.0,1.0
1609046853674812973,853,1609046853674551916,0.000183689120629,-4.84051705989e-05,6.80783208953e-05,0.0,0.0,0.0,1.0
1609046853723349501,854,1609046853722952079,0.000244452771927,-7.56647659017e-05,0.000158797080552,0.0,0.0,0.0,1.0
1609046853774113603,855,1609046853773651075,0.000114757489836,5.24677091089e-05,0.000258829101949,0.0,0.0,0.0,1.0
1609046853821515565,856,1609046853821171951,8.97097487034e-05,-1.45238161924e-05,0.000265518176521,0.0,0.0,0.0,1.0
1609046853875259317,857,1609046853874463033,1.00866369195e-05,4.05539963566e-06,0.00020506760913,0.0,0.0,0.0,1.0
1609046853925895355,858,1609046853925581884,1.23575296449e-05,8.63949313512e-06,0.000203561144598,0.0,0.0,0.0,1.0
1609046853972732701,859,1609046853972115945,9.96427201905e-05,-1.79175877584e-05,0.000244763125012,0.0,0.0,0.0,1.0
1609046854024396834,860,1609046854024079036,1.27713485618e-05,4.08941903807e-06,0.00020003266784,0.0,0.0,0.0,1.0
1609046854072994645,861,1609046854072736930,0.000156422331397,-4.90683045662e-05,0.000119022190889,0.0,0.0,0.0,1.0
1609046854124982940,862,1609046854124618005,9.15894038656e-06,-0.00015487812081,0.000110785557011,0.0,0.0,0.0,1.0
1609046854174833482,863,1609046854174545001,0.000228188905407,-0.000186535040804,0.000344045353513,0.0,0.0,0.0,1.0
1609046854222644145,864,1609046854222316932,2.11482290915e-05,5.25124549355e-06,0.000184960434527,0.0,0.0,0.0,1.0
1609046854273752004,865,1609046854273136091,0.000112260900188,-0.000188439880173,0.000117971511267,0.0,0.0,0.0,1.0
1609046854322981993,866,1609046854322701883,0.000250744476094,-7.22282813612e-05,0.000149025866708,0.0,0.0,0.0,1.0
1609046854375098100,867,1609046854374851894,9.87106876771e-05,-2.41047751377e-05,0.000242779809073,0.0,0.0,0.0,1.0
1609046854424274399,868,1609046854423603010,0.000135250432926,-0.000190853849722,0.000294833488846,0.0,0.0,0.0,1.0
1609046854472644976,869,1609046854472345066,6.46243418814e-05,-4.59222326814e-05,7.21728720308e-05,0.0,0.0,0.0,1.0
1609046854523745314,870,1609046854523350906,8.42160902863e-05,-5.88347961514e-05,0.000249089751341,0.0,0.0,0.0,1.0
1609046854574702265,871,1609046854573922109,9.51488539265e-05,-2.35120972913e-05,0.000249845091085,0.0,0.0,0.0,1.0
1609046854624356633,872,1609046854623556089,8.80206621581e-05,-1.74865956932e-05,0.00026690868539,0.0,0.0,0.0,1.0
1609046854674177476,873,1609046854673576068,0.000149165645944,-4.25964251161e-05,0.000136597253157,0.0,0.0,0.0,1.0
1609046854724416896,874,1609046854723947000,0.000242106047427,-6.68999946765e-05,0.00016851182647,0.0,0.0,0.0,1.0
1609046854773010514,875,1609046854772302103,0.000182268740584,-4.8986594857e-05,0.000292012463108,0.0,0.0,0.0,1.0
1609046854825525184,876,1609046854825087022,6.99732627716e-05,-2.25881949749e-05,7.6199203777e-05,0.0,0.0,0.0,1.0
1609046854874466472,877,1609046854873599004,0.000155008229296,-4.99482307372e-05,0.000121153353568,0.0,0.0,0.0,1.0
1609046854923831984,878,1609046854923375082,1.12031493522e-05,6.49619531501e-07,0.000200907313527,0.0,0.0,0.0,1.0
1609046854973122383,879,1609046854972850990,9.85816294374e-05,-1.45813742485e-05,0.000248777025948,0.0,0.0,0.0,1.0
1609046855022736070,880,1609046855022194099,9.22484093309e-05,-2.57961030599e-05,0.000253926796937,0.0,0.0,0.0,1.0
1609046855075709565,881,1609046855075406026,9.63767054181e-05,-2.34266113193e-05,0.000247584614179,0.0,0.0,0.0,1.0
1609046855124844084,882,1609046855124308061,3.31689049453e-05,-2.89300228395e-06,0.000379016733255,0.0,0.0,0.0,1.0
1609046855173577643,883,1609046855173238945,9.72667462449e-05,-1.32999289875e-05,0.00025202731209,0.0,0.0,0.0,1.0
1609046855223897161,884,1609046855222984027,9.60194028501e-05,-1.43793913878e-05,0.000253723916963,0.0,0.0,0.0,1.0
1609046855272061264,885,1609046855271763992,-9.98421292131e-05,4.75130104842e-05,0.00021671676118,0.0,0.0,0.0,1.0
1609046855326108740,886,1609046855325773906,1.02345742086e-05,8.24059337567e-06,0.000207317794539,0.0,0.0,0.0,1.0
1609046855372623987,887,1609046855372270059,9.15839966105e-05,-2.05621772142e-05,0.000258340355391,0.0,0.0,0.0,1.0
1609046855422336216,888,1609046855422006082,9.6250508566e-05,-2.07659676548e-05,0.000249429854852,0.0,0.0,0.0,1.0
1609046855474226844,889,1609046855473617029,0.000101676063611,-1.93231047767e-05,0.000240084965993,0.0,0.0,0.0,1.0
1609046855523589856,890,1609046855523247909,1.68406690015e-05,1.82929779413e-05,0.000200951881155,0.0,0.0,0.0,1.0
1609046855573930691,891,1609046855573610973,9.7364614529e-05,-1.63950265488e-05,0.000249972910174,0.0,0.0,0.0,1.0
1609046855625940360,892,1609046855625635099,-3.30935984678e-05,2.18519709865e-05,0.00051874735696,0.0,0.0,0.0,1.0
1609046855671700923,893,1609046855671206903,9.90627157904e-06,7.49222627761e-06,0.000429097478372,0.0,0.0,0.0,1.0
1609046855723626915,894,1609046855723248910,-5.3175392928e-05,2.6369317002e-05,0.000337677580537,0.0,0.0,0.0,1.0
1609046855772052241,895,1609046855771732997,3.28643216534e-05,1.34236597127e-06,0.000382149398261,0.0,0.0,0.0,1.0
1609046855823512113,896,1609046855823207092,3.05143760038e-05,4.01949975526e-06,0.00038819214765,0.0,0.0,0.0,1.0
1609046855874784651,897,1609046855874078941,0.000105964913462,-6.69638252369e-05,0.000424836501228,0.0,0.0,0.0,1.0
1609046855923459299,898,1609046855922763061,-9.90034877582e-05,-0.000115885056928,0.000338023456232,0.0,0.0,0.0,1.0
1609046855974371892,899,1609046855974065017,-5.35301106197e-05,-6.35724728237e-05,0.000284001021988,0.0,0.0,0.0,1.0
1609046856021732145,900,1609046856021315050,-9.90667945686e-05,-0.000113114930393,0.00033981641622,0.0,0.0,0.0,1.0
1609046856072374624,901,1609046856072081995,4.20861059318e-05,-0.000255124565495,0.00043143698584,0.0,0.0,0.0,1.0
1609046856125459271,902,1609046856124909114,9.59358611361e-05,-2.55771219138e-05,0.000247115381899,0.0,0.0,0.0,1.0
1609046856171520631,903,1609046856171273899,9.2751087692e-05,-2.35542464075e-05,0.000254334784165,0.0,0.0,0.0,1.0
1609046856222690382,904,1609046856222157907,-3.15051810844e-05,-0.000133672331478,0.000200171312144,0.0,0.0,0.0,1.0
1609046856273427263,905,1609046856273016881,5.08896510105e-05,-0.000163887690416,0.00024837181955,0.0,0.0,0.0,1.0
1609046856324317746,906,1609046856323759031,5.63357093597e-05,-0.000163545627153,0.000238323181138,0.0,0.0,0.0,1.0
1609046856374498220,907,1609046856373948049,0.00024886443795,-6.26741201284e-05,0.000158338771845,0.0,0.0,0.0,1.0
1609046856422011023,908,1609046856421402883,-3.28346587715e-05,-0.000128426012362,0.000205844673514,0.0,0.0,0.0,1.0
1609046856474143766,909,1609046856473319005,4.98659704142e-05,-0.000160587315001,0.00025229359132,0.0,0.0,0.0,1.0
1609046856524384273,910,1609046856523544025,5.5146921909e-05,-0.000156532399636,0.000244799185928,0.0,0.0,0.0,1.0
1609046856572723430,911,1609046856571675014,0.000137596832285,-0.000184959746569,0.000293976303888,0.0,0.0,0.0,1.0
1609046856624905985,912,1609046856624405097,-5.28705285099e-05,3.87699635027e-05,0.000344596257465,0.0,0.0,0.0,1.0
1609046856673327872,913,1609046856673025083,-1.17963273745e-05,-0.000138785261415,0.000381581846622,0.0,0.0,0.0,1.0
1609046856722733665,914,1609046856722501945,9.81882120961e-05,-1.72504177272e-05,0.000247905178025,0.0,0.0,0.0,1.0
1609046856773250605,915,1609046856772887897,3.36864608563e-05,7.9380882454e-06,0.000384586525923,0.0,0.0,0.0,1.0
1609046856821357601,916,1609046856821108055,3.22025938999e-05,1.25916275628e-06,0.000383345218495,0.0,0.0,0.0,1.0
1609046856874132946,917,1609046856873816919,9.60410526787e-05,-1.39124407923e-05,0.000253965288197,0.0,0.0,0.0,1.0
1609046856924395254,918,1609046856923998069,3.3721178216e-05,9.50666610677e-06,0.000385468922207,0.0,0.0,0.0,1.0
1609046856972152602,919,1609046856971686077,0.000116235548091,-2.07953696805e-05,0.000433391955294,0.0,0.0,0.0,1.0
1609046857024059016,920,1609046857023232889,0.00011614464275,-2.71359080628e-05,0.000429732035656,0.0,0.0,0.0,1.0
1609046857074614015,921,1609046857074028921,8.29245466321e-05,-3.88835981902e-06,0.000284721341188,0.0,0.0,0.0,1.0
1609046857125580476,922,1609046857124148082,-6.33005107815e-05,-8.4459090548e-06,0.000335707980842,0.0,0.0,0.0,1.0
1609046857173832120,923,1609046857173304033,-4.83164359437e-05,2.53995182717e-05,0.000327941751584,0.0,0.0,0.0,1.0
1609046857222070612,924,1609046857221424055,-1.40120996086e-05,-0.000137908083953,0.0003862843572,0.0,0.0,0.0,1.0
1609046857274120915,925,1609046857273400020,5.11012705253e-05,-0.000166668704818,0.000246293019616,0.0,0.0,0.0,1.0
1609046857323523455,926,1609046857322889041,0.000137533623874,-0.000183017350995,0.000295268938006,0.0,0.0,0.0,1.0
1609046857380981967,927,1609046857380572986,-5.10042900785e-05,3.76168655265e-05,0.000340385229944,0.0,0.0,0.0,1.0
1609046857423658569,928,1609046857422799062,-5.04176055358e-05,3.11269270608e-05,0.000335359075075,0.0,0.0,0.0,1.0
1609046857473648806,929,1609046857473135900,2.16216871678e-05,7.87465191898e-06,0.000407267287686,0.0,0.0,0.0,1.0
1609046857522790316,930,1609046857521938037,-0.00010160329969,4.91118380577e-05,0.000442613780773,0.0,0.0,0.0,1.0
1609046857573706879,931,1609046857573429059,8.39635647765e-06,-0.000114368194646,0.000358310299447,0.0,0.0,0.0,1.0
1609046857626403721,932,1609046857625137996,0.000184206402512,-4.33176144927e-05,0.000291789002318,0.0,0.0,0.0,1.0
1609046857673078891,933,1609046857672750902,-3.01822800672e-05,-0.000126212194345,0.000202187657449,0.0,0.0,0.0,1.0
1609046857723781167,934,1609046857723514986,5.33444761857e-05,-0.000152484283614,0.000250639218851,0.0,0.0,0.0,1.0
1609046857771424812,935,1609046857771048021,0.000146550656734,-0.000147070942484,0.000300008323086,0.0,0.0,0.0,1.0
1609046857826217630,936,1609046857825858068,5.52413251533e-05,-0.000152080276139,0.00024731142015,0.0,0.0,0.0,1.0
1609046857874025205,937,1609046857873683881,4.14035934639e-05,-0.000158572885885,0.000269446004815,0.0,0.0,0.0,1.0
1609046857922909942,938,1609046857922666978,5.09865178522e-05,-0.000160769832528,0.000250073241181,0.0,0.0,0.0,1.0
1609046857973946228,939,1609046857973325920,0.000147396899482,-0.000159727858742,0.000290767368352,0.0,0.0,0.0,1.0
1609046858022723515,940,1609046858022139024,0.000116249748682,-2.33071067761e-05,0.000431847563082,0.0,0.0,0.0,1.0
1609046858074341330,941,1609046858074082088,-4.20531227689e-05,2.72730977606e-05,0.000317279437549,0.0,0.0,0.0,1.0
1609046858123780575,942,1609046858123402070,-4.03115444314e-05,2.59974231689e-05,0.000313229102741,0.0,0.0,0.0,1.0
1609046858173570703,943,1609046858173200082,0.000175266272493,-7.84136933873e-05,0.000287418302085,0.0,0.0,0.0,1.0
1609046858223259509,944,1609046858222885084,-1.12139759345e-05,-0.000141914766546,0.000378594335899,0.0,0.0,0.0,1.0
1609046858274005699,945,1609046858273676109,5.25799151347e-05,-0.000156386196819,0.000249721380143,0.0,0.0,0.0,1.0
1609046858324414344,946,1609046858324167919,0.000100906416787,-2.11647275155e-05,0.000240421525376,0.0,0.0,0.0,1.0
1609046858374519160,947,1609046858374120903,5.46298383988e-05,-0.000162193594811,0.000242352362202,0.0,0.0,0.0,1.0
1609046858423478330,948,1609046858422740888,9.58345138748e-05,-2.96444398131e-05,0.000244848689414,0.0,0.0,0.0,1.0
1609046858473312963,949,1609046858472874116,9.74037703756e-05,-1.54628738525e-05,0.000250462399004,0.0,0.0,0.0,1.0
1609046858525776158,950,1609046858525416088,9.5000742121e-05,-3.01835548431e-05,0.000246092997148,0.0,0.0,0.0,1.0
1609046858572879150,951,1609046858572603893,3.45577432164e-05,5.94112595564e-07,0.000378508420077,0.0,0.0,0.0,1.0
1609046858625684117,952,1609046858625419092,-0.000119743602557,5.55210349891e-05,0.000480646622689,0.0,0.0,0.0,1.0
1609046858673942244,953,1609046858673686933,-9.95774725077e-05,4.7909294981e-05,0.000438072318159,0.0,0.0,0.0,1.0
1609046858722850681,954,1609046858722579908,2.03753801351e-05,8.01843737541e-06,0.000409701081187,0.0,0.0,0.0,1.0
1609046858776989392,955,1609046858776622962,-5.11136921943e-05,2.82548102657e-05,0.000334934469539,0.0,0.0,0.0,1.0
1609046858823574371,956,1609046858823208999,8.87434470371e-05,-1.72194432189e-05,0.00026570904774,0.0,0.0,0.0,1.0
1609046858872867713,957,1609046858872308921,-1.71813051537e-05,-0.000135709632675,0.000393580608055,0.0,0.0,0.0,1.0
1609046858924235244,958,1609046858924004030,-9.62825384008e-05,-0.000109174227129,0.000336954425597,0.0,0.0,0.0,1.0
1609046858971781877,959,1609046858971533012,0.000109222750631,-0.000175413070913,0.000353175056553,0.0,0.0,0.0,1.0
1609046859024379517,960,1609046859023923110,5.23202678728e-05,-0.000156769720034,0.000249978587394,0.0,0.0,0.0,1.0
1609046859078764303,961,1609046859078223896,0.000183405803075,-3.86980301084e-05,0.000296087815331,0.0,0.0,0.0,1.0
1609046859141359090,962,1609046859141013097,0.000181457415636,-4.27158545158e-05,0.000297329126981,0.0,0.0,0.0,1.0
1609046859221424336,963,1609046859221162033,0.000158820543124,-4.48564679179e-05,0.000117051073113,0.0,0.0,0.0,1.0
1609046859274107639,964,1609046859273499917,0.000163205671051,-3.54720942024e-05,0.000114463795942,0.0,0.0,0.0,1.0
1609046859325029961,965,1609046859324321937,0.000138735537007,0.00011865111008,0.000253666404097,0.0,0.0,0.0,1.0
1609046859376040101,966,1609046859375422906,0.000203276571153,-4.88665274077e-05,0.000252525896089,0.0,0.0,0.0,1.0
1609046859424116771,967,1609046859423437070,9.77502219648e-05,-1.61280053934e-05,0.000249408123381,0.0,0.0,0.0,1.0
1609046859473297694,968,1609046859473020029,0.000175724451225,-5.26199507824e-05,0.000302140482336,0.0,0.0,0.0,1.0
1609046859525294646,969,1609046859525078964,9.8327148045e-05,-2.01208382755e-05,0.000245909197774,0.0,0.0,0.0,1.0
1609046859576053925,970,1609046859575788927,1.67939667328e-05,1.24104760157e-05,0.000197485520061,0.0,0.0,0.0,1.0
1609046859624070298,971,1609046859623737049,0.00018337358609,-3.80658941843e-05,0.000296530429294,0.0,0.0,0.0,1.0
1609046859674700905,972,1609046859673526954,0.000180322549475,-4.04007784454e-05,0.000300864966535,0.0,0.0,0.0,1.0
1609046859723336474,973,1609046859722965908,1.4902273584e-05,1.25261551673e-05,0.000201117601977,0.0,0.0,0.0,1.0
1609046859774177069,974,1609046859773771953,0.000244247469958,-6.58694732785e-05,0.000165102076423,0.0,0.0,0.0,1.0
1609046859822694324,975,1609046859822247934,1.1006051448e-05,1.21454148605e-05,0.00020822440686,0.0,0.0,0.0,1.0
1609046859873477325,976,1609046859873044919,9.63743423767e-05,-1.82079807232e-05,0.000250742244372,0.0,0.0,0.0,1.0
1609046859924531612,977,1609046859924155902,-6.64859885759e-05,4.27385022714e-05,0.000151019875839,0.0,0.0,0.0,1.0
1609046859971742696,978,1609046859971306991,0.000120493647003,-2.03393432781e-05,0.000204036220973,0.0,0.0,0.0,1.0
1609046860025052950,979,1609046860024311971,0.000181878311885,-4.61170963924e-05,0.000294481464202,0.0,0.0,0.0,1.0
1609046860077576002,980,1609046860076178979,1.479430885e-05,2.35484609874e-05,0.000207980770394,0.0,0.0,0.0,1.0
1609046860124594782,981,1609046860124098014,-5.456208374e-06,2.33587716547e-05,0.000245999345877,0.0,0.0,0.0,1.0
1609046860174674913,982,1609046860174246025,1.32736634839e-05,1.26045251907e-05,0.000204231738795,0.0,0.0,0.0,1.0
1609046860222925087,983,1609046860222068977,4.79765182959e-05,-0.000120414655155,0.000280124228503,0.0,0.0,0.0,1.0
1609046860275682752,984,1609046860274840068,-4.6707665895e-05,2.86625063275e-05,0.000326883865515,0.0,0.0,0.0,1.0
1609046860325543820,985,1609046860324876976,1.64699799612e-05,3.8209232045e-07,0.000190827871378,0.0,0.0,0.0,1.0
1609046860372628908,986,1609046860372023057,1.95349056575e-05,2.92459558828e-05,0.000202496427535,0.0,0.0,0.0,1.0
1609046860423674227,987,1609046860423294019,9.97573527961e-05,-2.15340517791e-05,0.000242362138975,0.0,0.0,0.0,1.0
1609046860472506541,988,1609046860472068023,8.23668570575e-05,-5.62252859222e-05,0.000254148688686,0.0,0.0,0.0,1.0
1609046860524674371,989,1609046860524345111,7.38551247537e-05,-9.51999818479e-05,0.000246627889716,0.0,0.0,0.0,1.0
1609046860574917653,990,1609046860574511957,9.6150185751e-05,-4.14112708924e-06,0.000259663778911,0.0,0.0,0.0,1.0
1609046860623598153,991,1609046860622527074,0.000229506155666,0.000128463561067,0.000310280574979,0.0,0.0,0.0,1.0
1609046860680197291,992,1609046860679250907,5.88402088368e-05,0.000135300361881,0.000192562255691,0.0,0.0,0.0,1.0
1609046860723407787,993,1609046860722757053,3.32455961072e-05,6.02675769734e-06,0.000384261843127,0.0,0.0,0.0,1.0
1609046860774425374,994,1609046860774100017,3.58919333401e-05,-5.31369118306e-06,0.000372426391051,0.0,0.0,0.0,1.0
1609046860825428633,995,1609046860824613046,0.000180511899572,-5.75199829598e-05,0.00029016470906,0.0,0.0,0.0,1.0
1609046860872624620,996,1609046860872260999,1.86146957368e-05,5.47385092631e-06,0.000189865746831,0.0,0.0,0.0,1.0
1609046860924458908,997,1609046860924158048,7.79681605891e-05,-0.000102468538214,0.000234491022708,0.0,0.0,0.0,1.0
1609046860974189987,998,1609046860973066043,9.79770245877e-05,-1.54868351405e-05,0.000249368444036,0.0,0.0,0.0,1.0
1609046861025378749,999,1609046861024404954,1.57645542878e-05,1.0017529835e-05,0.000197978116695,0.0,0.0,0.0,1.0
1609046861076239789,1000,1609046861075694990,9.94341905454e-05,-2.38901013088e-05,0.000241547113426,0.0,0.0,0.0,1.0
1609046861123922975,1001,1609046861123401117,0.000100949362785,-2.325660002e-05,0.000239076713241,0.0,0.0,0.0,1.0
1609046861173337878,1002,1609046861172718954,0.000169305989694,-0.000127479847402,0.000268995579983,0.0,0.0,0.0,1.0
1609046861223170911,1003,1609046861222859096,-2.45521083286e-05,2.84542886426e-05,0.000285037244149,0.0,0.0,0.0,1.0
1609046861272970619,1004,1609046861272515010,6.09987399862e-05,6.30229324017e-06,0.000332166751578,0.0,0.0,0.0,1.0
1609046861329573073,1005,1609046861329286050,0.000181808132201,-2.73251129492e-05,0.000305968055347,0.0,0.0,0.0,1.0
1609046861374537194,1006,1609046861373880100,-4.39734841251e-06,-3.4084569263e-05,0.000209297236049,0.0,0.0,0.0,1.0
1609046861422558378,1007,1609046861422249031,9.7628616512e-05,-1.40610152322e-06,0.000258532341098,0.0,0.0,0.0,1.0
1609046861479683120,1008,1609046861479417037,0.000263549275797,-4.08611597518e-05,0.00036547742058,0.0,0.0,0.0,1.0
1609046861523994830,1009,1609046861523678016,4.74110055748e-05,-0.000181498680721,0.000244281705085,0.0,0.0,0.0,1.0
1609046861573903922,1010,1609046861573563051,0.000108184995668,-3.62600411812e-05,0.000217594673972,0.0,0.0,0.0,1.0
1609046861630026515,1011,1609046861629671049,0.000195305821851,-0.000160152396054,0.000200295335485,0.0,0.0,0.0,1.0
1609046861677226348,1012,1609046861676821899,9.82841485921e-05,-4.34785497845e-05,0.000231877092338,0.0,0.0,0.0,1.0
1609046861728135868,1013,1609046861727791023,0.000144799501477,-5.06544235321e-05,0.000139950204787,0.0,0.0,0.0,1.0
1609046861773874103,1014,1609046861773316097,0.000102214706022,-4.17834517208e-05,0.000225499795148,0.0,0.0,0.0,1.0
1609046861823198351,1015,1609046861822729063,0.00023790196477,-6.66148451209e-05,0.000176600608835,0.0,0.0,0.0,1.0
1609046861901577587,1016,1609046861899572086,8.95047692993e-05,-3.01039218851e-05,0.000256490411017,0.0,0.0,0.0,1.0
1609046861938508687,1017,1609046861937637996,0.000142135088851,0.000121355357086,0.000248898799866,0.0,0.0,0.0,1.0
1609046861979661823,1018,1609046861978901100,0.00014505882482,0.000127380730717,0.000247033902417,0.0,0.0,0.0,1.0
1609046862069673328,1019,1609046862069429111,0.000217451625637,7.19070905184e-05,0.000298807125354,0.0,0.0,0.0,1.0
1609046862122408691,1020,1609046862121916007,0.000143299818397,0.000124560861897,0.000248642387522,0.0,0.0,0.0,1.0
1609046862188988132,1021,1609046862188723993,1.17267554955e-06,0.000168451617347,0.000321185451963,0.0,0.0,0.0,1.0
1609046862234354448,1022,1609046862234009933,8.4404236226e-05,0.000135221283657,0.000365988541075,0.0,0.0,0.0,1.0
1609046862278613309,1023,1609046862278001022,7.60365710697e-05,0.000121519608568,0.000373466587948,0.0,0.0,0.0,1.0
1609046862324707922,1024,1609046862323917102,2.91561858567e-05,0.000130981503322,0.00024584974164,0.0,0.0,0.0,1.0
1609046862374088732,1025,1609046862373811912,0.00010274694014,-4.95382111083e-05,0.000219812035787,0.0,0.0,0.0,1.0
1609046862422578278,1026,1609046862422193956,0.000125386104042,9.61059722027e-05,4.35708476179e-05,0.0,0.0,0.0,1.0
1609046862475825457,1027,1609046862475201082,0.000208777498404,6.42769706953e-05,8.89196911018e-05,0.0,0.0,0.0,1.0
1609046862525371671,1028,1609046862525077056,0.000161327113908,-7.74074779635e-05,9.26635346232e-05,0.0,0.0,0.0,1.0
1609046862572542733,1029,1609046862572251033,0.000124562223252,1.82762537424e-05,0.000219706995745,0.0,0.0,0.0,1.0
1609046862625217703,1030,1609046862624978017,0.000170042740208,2.20747176627e-05,0.000136359732629,0.0,0.0,0.0,1.0
1609046862673408475,1031,1609046862673191022,1.86803525146e-05,-1.94923866115e-05,0.00017465715568,0.0,0.0,0.0,1.0
1609046862724277058,1032,1609046862723936033,-3.21574727842e-05,-0.000166569066861,0.000181523266798,0.0,0.0,0.0,1.0
1609046862775630289,1033,1609046862774596881,7.68423929358e-05,-0.000128547990055,0.000220853492243,0.0,0.0,0.0,1.0
1609046862823240246,1034,1609046862822932910,-1.84106777965e-05,-1.0856761179e-06,0.000255623820564,0.0,0.0,0.0,1.0
1609046862873659500,1035,1609046862873176050,4.23851920246e-05,7.2458526942e-05,0.000185577672159,0.0,0.0,0.0,1.0
1609046862926374271,1036,1609046862925621938,0.000208299687124,-2.95986427545e-06,0.000270804604204,0.0,0.0,0.0,1.0
1609046862972936579,1037,1609046862972558927,0.000147955124646,-4.42591607452e-05,0.000137872084753,0.0,0.0,0.0,1.0
1609046863022174160,1038,1609046863021897029,0.00026852114383,-0.000244243173739,1.16205041394e-05,0.0,0.0,0.0,1.0
1609046863075247143,1039,1609046863074717950,8.09228864505e-05,-3.06668988959e-05,5.06993450458e-05,0.0,0.0,0.0,1.0
1609046863124086616,1040,1609046863123454046,0.000115183916993,-0.000119716125994,0.000153990341021,0.0,0.0,0.0,1.0
1609046863174187616,1041,1609046863173928928,-6.45914694992e-05,1.79771013507e-05,0.000132491159011,0.0,0.0,0.0,1.0
1609046863223097610,1042,1609046863222320032,5.71362171833e-05,-0.000180217789328,0.000226742369481,0.0,0.0,0.0,1.0
1609046863275326036,1043,1609046863274917078,0.000125019357949,-3.48582532208e-05,0.000408354136804,0.0,0.0,0.0,1.0
1609046863324288632,1044,1609046863323878955,-3.98374936097e-05,2.00833632551e-05,0.000308763020325,0.0,0.0,0.0,1.0
1609046863371697197,1045,1609046863371320915,-4.91469187125e-05,1.19499663693e-05,0.000321379109014,0.0,0.0,0.0,1.0
1609046863423651289,1046,1609046863423254919,3.32368292462e-05,-1.22870201658e-05,0.000373212749945,0.0,0.0,0.0,1.0
1609046863474092133,1047,1609046863473118019,7.42198982309e-05,-0.000179313362917,0.000416731878087,0.0,0.0,0.0,1.0
1609046863525053113,1048,1609046863524383020,0.000184447665575,-5.89049006976e-05,0.000281916607205,0.0,0.0,0.0,1.0
1609046863574682611,1049,1609046863573886108,0.000100316521191,-3.14319327348e-05,0.000235328736901,0.0,0.0,0.0,1.0
1609046863623706304,1050,1609046863623228025,0.000101912997284,-3.8036930027e-05,0.000228331632513,0.0,0.0,0.0,1.0
1609046863675735209,1051,1609046863674140882,2.40705180232e-05,2.22810493611e-06,0.00017763094773,0.0,0.0,0.0,1.0
1609046863730027628,1052,1609046863729340028,0.000109527320916,-3.1849707975e-05,0.000217731774047,0.0,0.0,0.0,1.0
1609046863774462694,1053,1609046863773518991,0.000165665497242,-5.83863341532e-05,9.59868622203e-05,0.0,0.0,0.0,1.0
1609046863870325196,1054,1609046863869454097,0.000101293195453,-4.68543800363e-05,0.000224171136955,0.0,0.0,0.0,1.0
1609046863937148429,1055,1609046863936869096,0.000130960563464,-0.000174166134672,9.13833258629e-05,0.0,0.0,0.0,1.0
1609046863979869572,1056,1609046863979622077,0.000106795290922,-4.41859118663e-05,0.000215422660014,0.0,0.0,0.0,1.0
1609046864024595231,1057,1609046864023862075,0.000157475673436,-7.65610104363e-05,0.000100427408068,0.0,0.0,0.0,1.0
1609046864073010445,1058,1609046864072359037,0.000169359128869,-6.75704029902e-05,8.34825229887e-05,0.0,0.0,0.0,1.0
1609046864125029055,1059,1609046864124079895,0.000140785957171,-0.000100897310995,0.000117150798856,0.0,0.0,0.0,1.0
1609046864173383119,1060,1609046864172950935,3.35092259718e-06,-9.40066713113e-05,0.000158501173166,0.0,0.0,0.0,1.0
1609046864224631337,1061,1609046864224261951,1.9440616402e-05,-0.000187549747039,0.000293295982747,0.0,0.0,0.0,1.0
1609046864276168295,1062,1609046864275877904,0.00018537815475,-0.000246713038221,0.000388301290096,0.0,0.0,0.0,1.0
1609046864325610843,1063,1609046864324651908,0.000100362199241,-4.83595147998e-05,0.00022501484141,0.0,0.0,0.0,1.0
1609046864373598862,1064,1609046864373321008,0.000189926264099,-6.46751407753e-05,0.000268113583648,0.0,0.0,0.0,1.0
1609046864421113815,1065,1609046864420632076,9.75653914921e-05,-3.89423632114e-05,0.000235971387285,0.0,0.0,0.0,1.0
1609046864475142195,1066,1609046864474411916,9.63962727205e-05,-1.09637734962e-05,0.000255078018686,0.0,0.0,0.0,1.0
1609046864525930712,1067,1609046864525361013,5.16717583672e-05,-0.000160561861309,0.000248908541431,0.0,0.0,0.0,1.0
1609046864573192920,1068,1609046864572651100,0.000137048341418,-0.000190853905947,0.00029144786396,0.0,0.0,0.0,1.0
1609046864625621613,1069,1609046864625041913,0.00012957269006,-7.99888472898e-05,0.000150898977484,0.0,0.0,0.0,1.0
1609046864672083388,1070,1609046864671765041,0.00013914011895,-4.90111768432e-05,0.000151599981915,0.0,0.0,0.0,1.0
1609046864724799873,1071,1609046864724491071,9.90489105632e-05,-3.34754683031e-05,0.000236480998279,0.0,0.0,0.0,1.0
1609046864774730603,1072,1609046864774383020,6.16427302376e-05,-0.00018257273673,0.000216833431914,0.0,0.0,0.0,1.0
1609046864823405567,1073,1609046864823013973,0.000102037194321,-0.000196523077042,0.000132339420668,0.0,0.0,0.0,1.0
1609046864874271735,1074,1609046864873563003,0.000105092105834,-4.44525039658e-05,0.000218468787986,0.0,0.0,0.0,1.0
1609046864923480227,1075,1609046864923115921,1.88002475987e-05,-2.81310492962e-05,0.0001692117969,0.0,0.0,0.0,1.0
1609046864976545219,1076,1609046864975893926,9.72339938912e-05,-3.26763406573e-05,0.00024038145324,0.0,0.0,0.0,1.0
1609046865024733538,1077,1609046865022304010,1.15260102937e-05,-2.3333312237e-05,0.000185808512784,0.0,0.0,0.0,1.0
1609046865073145874,1078,1609046865072425079,0.000157631893504,-6.09760979327e-05,0.00010954974541,0.0,0.0,0.0,1.0
1609046865125527096,1079,1609046865125201892,0.000161635151503,-5.55162300859e-05,0.00010531032037,0.0,0.0,0.0,1.0
1609046865172639840,1080,1609046865172347021,0.000266024687349,-2.43379842146e-06,0.000162423129352,0.0,0.0,0.0,1.0
1609046865227909506,1081,1609046865227558088,0.000155291010525,-2.94865658432e-05,0.000132983996389,0.0,0.0,0.0,1.0
1609046865273290823,1082,1609046865272900056,0.00014921057852,-9.34913423585e-05,0.000105761561006,0.0,0.0,0.0,1.0
1609046865326603686,1083,1609046865326209020,0.000130147979679,-6.6373609382e-06,0.000194135466995,0.0,0.0,0.0,1.0
1609046865374360704,1084,1609046865374035072,0.000201670018374,-5.4415537738e-05,0.000252198344405,0.0,0.0,0.0,1.0
1609046865423512485,1085,1609046865423072052,0.000101783113635,-2.14434260819e-05,0.000238602252235,0.0,0.0,0.0,1.0
1609046865475030083,1086,1609046865474744987,1.81298887014e-05,-1.28755470836e-05,0.000179691697424,0.0,0.0,0.0,1.0
1609046865530118393,1087,1609046865529826116,0.000104443983364,-6.14459217729e-05,0.000209421611501,0.0,0.0,0.0,1.0
1609046865578383690,1088,1609046865578120899,8.32291182e-05,-5.69362692389e-05,3.04845120276e-05,0.0,0.0,0.0,1.0
1609046865628745850,1089,1609046865628394079,6.97598499571e-05,-5.84720302879e-05,5.49198090898e-05,0.0,0.0,0.0,1.0
1609046865672745792,1090,1609046865672383022,0.000246781818387,-8.64437170893e-05,0.000147898653379,0.0,0.0,0.0,1.0
1609046865730459622,1091,1609046865729983043,0.000233336684907,-6.37796137415e-05,0.000186910335374,0.0,0.0,0.0,1.0
1609046865780537484,1092,1609046865779864978,6.53609215284e-05,-1.33950252774e-05,9.04390662146e-05,0.0,0.0,0.0,1.0
1609046865828356285,1093,1609046865827942085,0.000208707135211,-0.000202010245212,0.00014976938715,0.0,0.0,0.0,1.0
1609046865877736001,1094,1609046865877375078,6.1116721259e-05,-5.57968510329e-06,0.000103153221865,0.0,0.0,0.0,1.0
1609046865929795362,1095,1609046865929393005,8.58192267508e-05,-1.14637561488e-06,0.000280927202235,0.0,0.0,0.0,1.0
1609046865976732935,1096,1609046865976235103,2.73433328957e-06,-0.000128071881598,0.000360692442172,0.0,0.0,0.0,1.0
1609046866029775213,1097,1609046866029437971,0.000296398809237,2.48193396235e-05,0.000121694110801,0.0,0.0,0.0,1.0
1609046866081847755,1098,1609046866081473064,0.000169767776772,-5.32953239638e-05,9.13381162366e-05,0.0,0.0,0.0,1.0
